,zpid,address,city_state_zip,latitude,longitude,message_code,zestimate,valuation_high,valuation_low,home value index,tax assessment,tax assess year,year built,lot size,finished sq ft,bedrooms,bathrooms
0,20208623,21563 Cleardale St, Santa Clarita CA 91321,34.38946621,-118.5100557,0,413606,454967,351565,"476,300",128569,2017,1915,436280,534,1,1
1,20205856,24001 Briardale Way, Santa Clarita CA 91321,34.35776376,-118.5397209,0,743508,780683,706333,"459,200",593077,2017,1985,15921,3059,4,3
2,20227938,26327 Emerald Dove Dr, Santa Clarita CA 91355,34.40468246,-118.5652478,0,514185,539894,483334,"530,000",436742,2017,1988,7083,1532,3,3
3,20210604,22405 Cardiff Dr, Santa Clarita CA 91350,34.40333323,-118.524928,0,768470,806893,730047,"476,300",672258,2017,1988,21498,2573,4,3
4,20227860,26215 Paolino Pl, Santa Clarita CA 91355,34.39924336,-118.5661404,0,656110,688915,623305,"530,000",579477,2017,1987,12000,1839,3,3
5,20222345,25458 Ave Escalera, Santa Clarita CA 91355,34.38649597,-118.552921,0,697020,731871,662169,"530,000",631734,2017,1969,7069,2327,4,3
6,20205334,23649 Newhall Ave, Santa Clarita CA 91321,34.36865694,-118.5181222,0,638108,689157,555154,"459,200",289438,2017,1948,118401,1530,3,1
7,20207160,23614 Neargate Dr, Santa Clarita CA 91321,34.37279675,-118.5469708,0,769070,807523,730617,"459,200",415000,2017,1964,12673,2200,4,4
8,20228830,24902 Avignon Dr, Santa Clarita CA 91355,34.41983207,-118.570755,0,621945,653042,590848,"530,000",196847,2017,1998,15447,1919,2,3
9,20205334,23649 Newhall Ave, Santa Clarita CA 91321,34.36657836,-118.5159849,0,638108,689157,555154,"459,200",289438,2017,1948,118401,1530,3,1
10,20218405,22503 Los Tigres Dr, Santa Clarita CA 91350,34.43075118,-118.5291402,0,526268,552581,499955,"476,300",399000,2017,1963,5869,1376,4,2
11,20196019,23401 Westford Pl, Santa Clarita CA 91354,34.43502397,-118.5440172,0,734017,770718,697316,"530,000",610093,2017,1989,6098,2829,4,3
12,20210437,25549 Sheffield Ln, Santa Clarita CA 91350,34.40493046,-118.5304491,0,604531,634758,574304,"476,300",567630,2017,1986,9234,1635,3,3
13,20225880,26028 Tourelle Pl, Santa Clarita CA 91355,34.39610882,-118.5636719,0,758984,796933,721035,"530,000",699900,2017,1986,7568,2536,4,3
14,20205856,24001 Briardale Way, Santa Clarita CA 91321,34.35572645,-118.5389675,0,743508,780683,706333,"459,200",593077,2017,1985,15921,3059,4,3
15,20226271,23402 Gaucho Ct, Santa Clarita CA 91355,34.41310606,-118.5439879,0,429091,450546,407636,"530,000",226130,2017,1985,8520,1128,3,2
16,20218450,26614 Gavilan Dr, Santa Clarita CA 91350,34.42862404,-118.5326853,0,548514,575940,521088,"476,300",63320,2017,1963,6678,1769,4,2
17,20205355,23960 Wildwood Canyon Rd, Santa Clarita CA 91321,34.36424848,-118.5289205,0,2118070,2414600,1948624,"459,200",1564797,2017,1989,391533,6742,5,6
18,94641939,26579 Bouquet Canyon Rd, Santa Clarita CA 91350,34.42946667,-118.5362537,0,738322,775238,701406,"476,300",614049,2017,2010,6169,3184,4,3
19,20206662,23463 Cherry St, Santa Clarita CA 91321,34.37703794,-118.5442091,0,328967,384891,299360,"459,200",42823,2017,1972,7405,800,2,1
20,20205561,23306 Maple St, Santa Clarita CA 91321,34.36913907,-118.5375639,0,1235285,1309402,1173521,"459,200",633745,2017,1983,23522,6105,4,5
21,20219256,25565 Vía Paladar, Santa Clarita CA 91355,34.38465088,-118.5614012,0,1362037,1498241,1266694,"530,000",940727,2017,1979,31333,4837,5,5
22,20226383,26122 Bella Santa Dr, Santa Clarita CA 91355,34.41080021,-118.5499436,0,632861,664504,601218,"530,000",443006,2017,1984,5117,1614,3,2
23,20208611,22362 Circle J Ranch Rd, Santa Clarita CA 91350,34.39516305,-118.5307367,0,776065,814868,737262,"476,300",806696,2017,1992,13460,2613,4,3
24,124874013,21717 Propello Dr, Santa Clarita CA 91351,34.41762671,-118.5160666,0,507041,532393,481689,"476,300",414630,2017,2015,61856,1719,4,3
25,20207761,21355 Placerita Canyon Rd, Santa Clarita CA 91321,34.38330936,-118.5117092,0,1018799,1079927,967859,"459,200",890563,2017,1979,44521,3400,4,3
26,20223427,25528 La Gosta Pl, Santa Clarita CA 91355,34.39027947,-118.5544473,0,559439,587411,531467,"530,000",336364,2017,1975,5809,1325,3,2
27,54945958,27067 Channel Ln, Santa Clarita CA 91355,34.43050976,-118.5614221,0,597399,627269,388309,"530,000",584022,2017,2001,5798,2145,4,3
28,20201982,24203 Wabuska St, Santa Clarita CA 91321,34.37304815,-118.5575906,0,486968,511316,462620,"459,200",291781,2017,1974,7100,1302,3,2
29,20209790,22223 Claibourne Ln, Santa Clarita CA 91350,34.39860794,-118.5255485,0,607308,637673,576943,"476,300",559900,2017,1986,6969,1635,3,3
30,20202079,24604 Sagecrest Cir, Santa Clarita CA 91381,34.37006509,-118.5652713,0,729942,766439,693445,"459,200",574039,2017,1987,13447,2312,4,3
31,20207763,24506 Golden Oak Ln, Santa Clarita CA 91321,34.38045448,-118.5074378,0,1467886,1541280,1365134,"477,300",942169,2017,1988,108900,5572,5,4
32,20205354,23876 Wildwood Canyon Rd, Santa Clarita CA 91321,34.36251935,-118.5280319,0,815857,856650,775064,"459,200",110014,2017,1964,107123,2413,4,3
33,20208677,21618 Oak Orchard Rd, Santa Clarita CA 91321,34.38536806,-118.5155603,0,693570,728248,658892,"459,200",674622,2017,1960,31340,1813,3,2
34,20224976,25625 Palma Alta Dr, Santa Clarita CA 91355,34.40223587,-118.5431842,0,478070,501973,454167,"530,000",433500,2017,1980,3571,1018,3,2
35,20219205,24234 Lema Dr, Santa Clarita CA 91355,34.389331,-118.560024,0,459677,482661,436693,"530,000",291479,2017,1975,2099,1462,4,2
36,20210602,22415 Cardiff Dr, Santa Clarita CA 91350,34.40445319,-118.5253078,0,686203,720513,651893,"477,300",662339,2017,1988,15834,2353,4,3
37,50882521,23944 Windward Ln, Santa Clarita CA 91355,34.43033126,-118.5570395,0,873162,916820,829504,"530,000",752169,2017,2001,5662,3255,4,3
38,50903295,22601 White Wing Way, Santa Clarita CA 91350,34.39606089,-118.5331795,0,760954,799002,722906,"476,300",635659,2017,1999,6503,2520,5,3
39,20225290,25762 Alta Dr, Santa Clarita CA 91355,34.4055121,-118.5458158,0,683425,717596,649254,"530,000",464960,2017,1984,5977,2279,4,3
40,20206904,23153 1/2 8th St, Santa Clarita CA 91321,34.37462553,-118.5357595,0,534486,561210,507762,"459,200",467500,2017,1965,10571,1250,3,2
41,20205835,24166 Creekside Dr, Santa Clarita CA 91321,34.36156307,-118.5405289,0,783956,823154,744758,"459,200",643146,2017,1986,8906,3140,3,4
42,50894008,25301 Heather Vale St, Santa Clarita CA 91350,34.39461546,-118.5338478,0,701869,736962,666776,"476,300",636000,2017,1999,7366,2328,5,3
43,20222467,23926 Vía Hamaca, Santa Clarita CA 91355,34.38721729,-118.554713,0,626951,658299,595603,"530,000",390853,2017,1969,7840,1769,3,2
44,20223354,25503 Langston St, Santa Clarita CA 91355,34.3912902,-118.550667,0,547064,574417,519711,"530,000",365400,2017,1974,5500,1442,3,2
45,20224539,25538 Vía Pacifica, Santa Clarita CA 91355,34.39813986,-118.5474545,0,602822,632963,572681,"530,000",566100,2017,1979,6383,1599,3,2
46,20207852,21720 Placerita Canyon Rd, Santa Clarita CA 91321,34.38166704,-118.5191422,0,806958,847306,766610,"459,200",114804,2017,1961,29683,2256,4,2
47,54943999,27054 Clarence Ct, Santa Clarita CA 91355,34.42948694,-118.5611108,0,693903,728598,659208,"530,000",470958,2017,2001,3763,2415,4,3
48,20219267,24535 Farrow Dr, Santa Clarita CA 91355,34.38127896,-118.56396,0,762168,800276,724060,"530,000",658869,2017,1979,15456,2288,4,3
49,50894092,24707 Napa Ct, Santa Clarita CA 91355,34.41345278,-118.5682185,0,1620810,1750475,1539770,"530,000",1800300,2017,2001,17664,4565,4,6
50,20219249,24243 Vista Hills Dr, Santa Clarita CA 91355,34.38384735,-118.5600546,0,1095478,1150252,1040704,"530,000",927877,2017,1980,19947,4056,4,4
51,20208653,21157 Placeritos Blvd, Santa Clarita CA 91321,34.38315889,-118.5072149,0,1328483,1434762,1222204,"459,200",594448,2017,1977,49222,4979,6,6
52,20221250,24912 Avenida Balita, Santa Clarita CA 91355,34.38429528,-118.5418526,0,595634,625416,565852,"530,000",259060,2017,1969,6848,1817,4,2
53,20205688,23598 Stillwater Pl, Santa Clarita CA 91321,34.36755815,-118.5455818,0,893051,937704,848398,"459,200",693600,2017,1987,7424,4,5,5
