,zpid,address,city_state_zip,latitude,longitude,message_code,zestimate,valuation_high,valuation_low,home value index,tax assessment,tax assess year,year built,lot size,finished sq ft,bedrooms,bathrooms
0,245330328,2001 Willow Street Pike, Lancaster PA 17602,40.0043066256,-76.2943631229,0,255572,268351,242793,"229,200",172000.0,2017,1940,19602,1874,5,2.0
1,9728809,2112 Hollinger Rd, Lancaster PA 17602,40.0005108999,-76.2947090535,0,243879,260951,224369,"229,200",186500.0,2017,1972,27878,1682,3,2.5
2,9728732,200 Woodfield Crossing, Lancaster PA 17602,40.0013441597,-76.2817468869,0,863265,923694,776939,"204,100",611600.0,2017,1994,217800,6409,4,5.0
3,9759803,1422 Clayton Rd, Lancaster PA 17603,40.052536187600005,-76.33429514859999,0,299303,317261,278352,"212,200",180600.0,2017,1968,14810,2146,4,3.0
4,9757592,1956 Melody Ln, Lancaster PA 17601,40.079346281199996,-76.3111290063,0,277867,291760,263974,"212,200",189500.0,2017,1955,16553,2100,3,2.0
5,245330211,140 Woodfield Crossing, Lancaster PA 17602,40.0011534726,-76.2894019192,0,797907,941530,702158,"204,100",755000.0,2017,2007,169884,11990,6,6.5
6,9758039,1726 Crooked Oak Dr, Lancaster PA 17601,40.0721549923,-76.2922775722,0,181540,190617,172463,"212,200",121200.0,2017,1965,13504,1075,3,1.0
7,9760424,408 Rutledge Ave, Lancaster PA 17601,40.0639875779,-76.2975481388,0,219860,230853,200073,"212,200",148100.0,2017,1965,10890,1248,4,3.0
8,245339886,1924 Willow Street Pike, Lancaster PA 17602,40.005605135100005,-76.2962511539,0,175755,191573,159937,"229,200",132400.0,2017,1910,8712,1602,3,2.0
9,9719899,761 Barr Blvd, Lancaster PA 17603,40.0527386759,-76.3465166456,0,292042,306644,277440,"242,000",211800.0,2017,1965,16117,1107,4,2.5
10,9728730,1250 Eshelman Mill Rd, Lancaster PA 17602,40.006104716100005,-76.283369917,0,388668,411988,357575,"204,100",271400.0,2017,1987,253084,1744,3,2.5
11,9758696,1266 Belle Meade Dr, Lancaster PA 17601,40.0699963575,-76.2798500305,0,386935,410151,363719,"212,200",310500.0,2017,1998,18730,2530,3,3.0
12,54240073,515 2nd Lock Rd, Lancaster PA 17603,40.000849127600006,-76.3202945003,0,322906,348738,300303,"214,500",193200.0,2017,1969,126324,1484,3,2.5
13,54234749,1020 New Holland Ave, Lancaster PA 17601,40.054888826100004,-76.28224999689999,0,172930,181576,164284,"212,200",116600.0,2017,1952,6534,1474,2,1.0
14,9742862,1020 Virginia Ave, Lancaster PA 17603,40.043509591799996,-76.3251448349,0,173023,188595,145339,"212,200",131500.0,2017,1920,39640,560,3,1.0
15,2143941571,1603 Lincoln Hwy E, Lancaster PA 17602,40.0388182195,-76.270989638,0,342108,523425,236055,"229,200",148100.0,2017,1880,185130,1248,0,3.0
16,9744058,1519 Valley Rd, Lancaster PA 17603,40.0489373713,-76.3376514825,0,370669,389202,344722,"229,200",245200.0,2017,1961,22651,2156,4,2.5
17,54229727,989 Gypsy Hill Rd, Lancaster PA 17602,40.0132152543,-76.27153639609999,0,318016,333917,302115,"229,200",242900.0,2017,1999,74052,1197,4,2.5
18,54230457,757 N Reservoir St, Lancaster PA 17602,40.0513812893,-76.2937081658,0,110144,117854,100231,"204,100",83100.0,2017,1927,2178,640,3,1.0
19,9760123,118 Glen Moore Cir, Lancaster PA 17601,40.062319362,-76.3115761226,0,202782,212921,192643,"212,200",139300.0,2017,1963,10890,1107,4,2.0
20,58756446,851 Fountain Ave, Lancaster PA 17601,40.0558837169,-76.2927045199,0,156651,164484,148818,"212,200",94500.0,2017,1953,4356,1200,3,1.0
21,9758761,1426 Sunset Dr, Lancaster PA 17601,40.0693791332,-76.2773972202,0,297354,312222,282486,"212,200",210800.0,2017,1955,40946,2395,3,2.5
22,9760952,1652 Leona Ave, Lancaster PA 17601,40.0661876879,-76.29610615520001,0,254728,272559,241992,"212,200",161400.0,2017,1989,8712,1872,4,2.5
23,9758009,1835 Crooked Oak Dr, Lancaster PA 17601,40.0759250711,-76.2912832235,0,229595,241075,218115,"212,200",153600.0,2017,1971,19602,1676,3,1.0
24,246002614,881 Eshelman Mill Rd, Lancaster PA 17602,40.0185365329,-76.2729010437,0,580957,644862,528671,"229,200",596100.0,2017,1972,2038608,1988,5,2.0
25,9728733,552 Golf Rd, Lancaster PA 17602,40.013521881500004,-76.2842566608,0,207442,219889,192921,"229,200",137400.0,2017,1956,44431,1730,3,1.0
26,9728992,981 Gypsy Hill Rd, Lancaster PA 17602,40.014632189299995,-76.27187437810001,0,197702,207587,187817,"229,200",128300.0,2017,1979,74052,850,3,1.0
27,61226691,550 2nd Lock Rd, Lancaster PA 17603,40.004224209499995,-76.3166332319,0,332619,349250,315988,"214,500",220900.0,2017,2001,86249,1582,3,2.5
28,9759539,38 E Roseville, Lancaster PA 17601,40.0763366099,-76.3061553379,0,220846,231888,209804,"212,200",131900.0,2017,1939,13068,1055,3,2.0
29,9728752,1227 Willow Street Pike, Lancaster PA 17602,40.013637744499995,-76.298561227,0,677382,1083811,494489,"229,200",315800.0,2017,1927,261360,4213,6,4.0
30,9728730,1250 Eshelman Mill Rd, Lancaster PA 17602,40.0058943259,-76.2800588156,0,388668,411988,357575,"204,100",271400.0,2017,1987,253084,1744,3,2.5
31,9728752,1227 Willow Street Pike, Lancaster PA 17602,40.0136690456,-76.2985322475,0,677382,1083811,494489,"229,200",315800.0,2017,1927,261360,4213,6,4.0
32,9728730,1250 Eshelman Mill Rd, Lancaster PA 17602,40.005514500000004,-76.2812564302,0,388668,411988,357575,"204,100",271400.0,2017,1987,253084,1744,3,2.5
33,9760417,1514 Esbenshade Rd, Lancaster PA 17601,40.0632430609,-76.2985282935,0,220419,231440,209398,"212,200",131900.0,2017,1946,6534,1647,3,2.0
34,9766816,1578 Stone Mill Rd, Lancaster PA 17603,40.0293559196,-76.3442272619,0,242406,254526,230286,"178,200",156300.0,2017,1875,17424,2385,3,2.0
35,9759114,1914 Robindale Ave, Lancaster PA 17601,40.0824858147,-76.3037606986,0,236058,247861,221895,"212,200",144200.0,2017,1963,19166,1128,4,3.0
36,9728356,1605 Millport Rd, Lancaster PA 17602,40.023546788000004,-76.2638820464,0,184313,193529,175097,"229,200",128800.0,2017,1960,18295,1256,3,1.0
37,123537521,424 Lampeter Rd, Lancaster PA 17602,40.028497356399996,-76.2737815161,0,174792,183532,162557,"229,200",118400.0,2017,1951,16117,1061,4,1.5
38,54229431,1111 Willow Street Pike, Lancaster PA 17602,40.0188737122,-76.3011327242,0,198618,214507,188687,"229,200",116800.0,2017,1998,30492,864,3,2.5
39,9766445,1560 Stone Mill Rd, Lancaster PA 17603,40.0296556884,-76.3441913034,0,356705,392375,296065,"178,200",335900.0,2017,1770,74052,1768,3,2.0
40,119271583,1189 Edgemoor Ct, Lancaster PA 17601,40.05988764,-76.2815091951,0,368954,387402,332059,"212,200",270300.0,2017,2016,8276,1336,4,2.5
41,9759837,814 State St, Lancaster PA 17603,40.050729025,-76.3237855313,0,189828,199319,180337,"212,200",121400.0,2017,1927,3375,1672,4,1.0
42,9728976,954 Gypsy Hill Rd, Lancaster PA 17602,40.014620516,-76.2739865867,0,263609,279426,247792,"229,200",185800.0,2017,1944,30928,1175,3,2.5
43,9728753,1303 Willow Street Pike, Lancaster PA 17602,40.0129474931,-76.2985326493,0,156423,164244,148602,"229,200",97900.0,2017,1946,9148,1105,2,1.0
44,245337543,901 Pleasure Rd, Lancaster PA 17601,40.0593645831,-76.2892238606,0,196477,206301,186653,"212,200",117100.0,2017,1976,7841,948,3,1.5
45,54234399,1879 Manchester Ln, Lancaster PA 17601,40.0742244532,-76.3130911429,0,279226,293187,265265,"212,200",173500.0,2017,1975,16117,1100,4,2.5
46,9729126,1005 Willow Street Pike, Lancaster PA 17602,40.0209604001,-76.303183698,0,237178,249037,225319,"229,200",148300.0,2017,1919,13068,2178,4,1.5
47,9728752,1227 Willow Street Pike, Lancaster PA 17602,40.0145436801,-76.2963889081,0,677382,1083811,494489,"229,200",315800.0,2017,1927,261360,4213,6,4.0
48,9759174,288 Rhoda Dr, Lancaster PA 17601,40.0817820782,-76.3016951604,0,297885,312779,282991,"212,200",191700.0,2017,1969,20909,1350,4,2.5
49,9728353,1556 Braxton Dr, Lancaster PA 17602,40.0195796497,-76.2663070342,0,211033,221585,196261,"229,200",126000.0,2017,1989,9147,1367,3,2.0
50,9729126,1005 Willow Street Pike, Lancaster PA 17602,40.021295527,-76.3032157252,0,237178,249037,225319,"229,200",148300.0,2017,1919,13068,2178,4,1.5
